[
  {
    "name": "Wrigley Field",
    "category": "sports",
    "neighborhood": "Lakeview",
    "streets": "Addison & Clark",
    "lat": 41.9484,
    "lng": -87.6553,
    "image_url": "https://upload.wikimedia.org/wikipedia/commons/thumb/8/82/Wrigley_Field_marquee_2022.jpg/640px-Wrigley_Field_marquee_2022.jpg"
  },
  {
    "name": "United Center",
    "category": "sports",
    "neighborhood": "Near West Side",
    "streets": "Madison & Damen",
    "lat": 41.8807,
    "lng": -87.6742,
    "image_url": "https://upload.wikimedia.org/wikipedia/commons/thumb/9/9b/United_Center_2014.jpg/640px-United_Center_2014.jpg"
  },
  {
    "name": "Soldier Field",
    "category": "sports",
    "neighborhood": "Museum Campus",
    "streets": "Museum Campus Dr & McFetridge Dr",
    "lat": 41.8623,
    "lng": -87.6167,
    "image_url": "https://upload.wikimedia.org/wikipedia/commons/thumb/4/42/Soldier_Field_aerial.jpg/640px-Soldier_Field_aerial.jpg"
  },
  {
    "name": "Guaranteed Rate Field",
    "category": "sports",
    "neighborhood": "Bridgeport",
    "streets": "35th & Shields",
    "lat": 41.83,
    "lng": -87.6338,
    "image_url": "https://upload.wikimedia.org/wikipedia/commons/thumb/1/1d/Guaranteed_Rate_Field_2016.jpg/640px-Guaranteed_Rate_Field_2016.jpg"
  },
  {
    "name": "The Chicago Theatre",
    "category": "theatre",
    "neighborhood": "Loop",
    "streets": "State & Lake",
    "lat": 41.8855,
    "lng": -87.6272,
    "image_url": "https://upload.wikimedia.org/wikipedia/commons/thumb/4/49/Chicago_Theatre_blend.jpg/640px-Chicago_Theatre_blend.jpg"
  },
  {
    "name": "Art Institute of Chicago",
    "category": "museum",
    "neighborhood": "Loop",
    "streets": "Michigan & Adams",
    "lat": 41.8796,
    "lng": -87.6237,
    "image_url": "https://upload.wikimedia.org/wikipedia/commons/thumb/5/5b/Art_Institute_of_Chicago_2016.jpg/640px-Art_Institute_of_Chicago_2016.jpg"
  },
  {
    "name": "Navy Pier",
    "category": "attraction",
    "neighborhood": "Streeterville",
    "streets": "Grand & Navy Pier",
    "lat": 41.8917,
    "lng": -87.6078,
    "image_url": "https://upload.wikimedia.org/wikipedia/commons/thumb/5/5c/Navy_Pier_from_Lake_Michigan.jpg/640px-Navy_Pier_from_Lake_Michigan.jpg"
  },
  {
    "name": "Cloud Gate",
    "category": "landmark",
    "neighborhood": "Loop",
    "streets": "Michigan & Randolph",
    "lat": 41.8827,
    "lng": -87.6233,
    "image_url": "https://upload.wikimedia.org/wikipedia/commons/thumb/c/c1/Cloud_Gate_%28The_Bean%29_from_east%27.jpg/640px-Cloud_Gate_%28The_Bean%29_from_east%27.jpg"
  },
  {
    "name": "Willis Tower Skydeck",
    "category": "landmark",
    "neighborhood": "Loop",
    "streets": "233 S Wacker Dr",
    "lat": 41.8785,
    "lng": -87.6359,
    "image_url": "https://upload.wikimedia.org/wikipedia/commons/thumb/6/6f/Willis_Tower_From_Lake.jpg/640px-Willis_Tower_From_Lake.jpg"
  },
  {
    "name": "360 Chicago",
    "category": "landmark",
    "neighborhood": "Streeterville",
    "streets": "875 N Michigan Ave",
    "lat": 41.899,
    "lng": -87.6232
  },
  {
    "name": "Field Museum",
    "category": "museum",
    "neighborhood": "Museum Campus",
    "streets": "1400 S DuSable Lake Shore Dr",
    "lat": 41.8663,
    "lng": -87.617,
    "image_url": "https://upload.wikimedia.org/wikipedia/commons/thumb/9/9e/Field_Museum_of_Natural_History.jpg/640px-Field_Museum_of_Natural_History.jpg"
  },
  {
    "name": "Shedd Aquarium",
    "category": "museum",
    "neighborhood": "Museum Campus",
    "streets": "1200 S DuSable Lake Shore Dr",
    "lat": 41.8676,
    "lng": -87.614,
    "image_url": "https://upload.wikimedia.org/wikipedia/commons/thumb/a/a7/Shedd_Aquarium_Chicago.jpg/640px-Shedd_Aquarium_Chicago.jpg"
  },
  {
    "name": "Adler Planetarium",
    "category": "museum",
    "neighborhood": "Museum Campus",
    "streets": "1300 S DuSable Lake Shore Dr",
    "lat": 41.8663,
    "lng": -87.6068,
    "image_url": "https://upload.wikimedia.org/wikipedia/commons/thumb/3/3a/Adler_Planetarium_Chicago.jpg/640px-Adler_Planetarium_Chicago.jpg"
  },
  {
    "name": "Museum of Science and Industry",
    "category": "museum",
    "neighborhood": "Hyde Park",
    "streets": "57th & Cornell",
    "lat": 41.7906,
    "lng": -87.5831,
    "image_url": "https://upload.wikimedia.org/wikipedia/commons/thumb/0/03/Museum_of_Science_and_Industry_Chicago.jpg/640px-Museum_of_Science_and_Industry_Chicago.jpg"
  },
  {
    "name": "Lincoln Park Zoo",
    "category": "attraction",
    "neighborhood": "Lincoln Park",
    "streets": "Cannon Dr & Fullerton Pkwy",
    "lat": 41.9211,
    "lng": -87.6337,
    "image_url": "https://upload.wikimedia.org/wikipedia/commons/thumb/7/7f/Lincoln_Park_Zoo_entrance.jpg/640px-Lincoln_Park_Zoo_entrance.jpg"
  },
  {
    "name": "Millennium Park",
    "category": "park",
    "neighborhood": "Loop",
    "streets": "Michigan & Randolph",
    "lat": 41.8826,
    "lng": -87.6226,
    "image_url": "https://upload.wikimedia.org/wikipedia/commons/thumb/8/8a/Millennium_Park_Chicago.jpg/640px-Millennium_Park_Chicago.jpg"
  },
  {
    "name": "Grant Park",
    "category": "park",
    "neighborhood": "Loop",
    "streets": "Michigan & Congress",
    "lat": 41.8758,
    "lng": -87.6189
  },
  {
    "name": "Maggie Daley Park",
    "category": "park",
    "neighborhood": "Loop",
    "streets": "337 E Randolph St",
    "lat": 41.8829,
    "lng": -87.6194
  },
  {
    "name": "Buckingham Fountain",
    "category": "landmark",
    "neighborhood": "Grant Park",
    "streets": "Columbus & Congress",
    "lat": 41.8758,
    "lng": -87.6189,
    "image_url": "https://upload.wikimedia.org/wikipedia/commons/thumb/e/ef/Buckingham_Fountain_Chicago.jpg/640px-Buckingham_Fountain_Chicago.jpg"
  },
  {
    "name": "Chicago Cultural Center",
    "category": "landmark",
    "neighborhood": "Loop",
    "streets": "78 E Washington St",
    "lat": 41.8839,
    "lng": -87.6249,
    "image_url": "https://upload.wikimedia.org/wikipedia/commons/thumb/5/57/Chicago_Cultural_Center_200708.jpg/640px-Chicago_Cultural_Center_200708.jpg"
  },
  {
    "name": "Harold Washington Library Center",
    "category": "library",
    "neighborhood": "Loop",
    "streets": "State & Van Buren",
    "lat": 41.8763,
    "lng": -87.6282,
    "image_url": "https://upload.wikimedia.org/wikipedia/commons/thumb/5/5b/Harold_Washington_Library_Chicago.jpg/640px-Harold_Washington_Library_Chicago.jpg"
  },
  {
    "name": "Frederick C. Robie House",
    "category": "historic site",
    "neighborhood": "Hyde Park",
    "streets": "5757 S Woodlawn Ave",
    "lat": 41.7898,
    "lng": -87.5957,
    "image_url": "https://upload.wikimedia.org/wikipedia/commons/thumb/4/4d/Robie_House.jpg/640px-Robie_House.jpg"
  },
  {
    "name": "Promontory Point",
    "category": "park",
    "neighborhood": "Hyde Park",
    "streets": "55th & Lakefront Trail",
    "lat": 41.7954,
    "lng": -87.5797
  },
  {
    "name": "The Green Mill",
    "category": "music venue",
    "neighborhood": "Uptown",
    "streets": "Broadway & Lawrence",
    "lat": 41.9692,
    "lng": -87.6599,
    "image_url": "https://upload.wikimedia.org/wikipedia/commons/thumb/2/27/Green_Mill_Cocktail_Lounge.jpg/640px-Green_Mill_Cocktail_Lounge.jpg"
  },
  {
    "name": "The Second City",
    "category": "theatre",
    "neighborhood": "Old Town",
    "streets": "Wells & North Ave",
    "lat": 41.9116,
    "lng": -87.6349,
    "image_url": "https://upload.wikimedia.org/wikipedia/commons/thumb/6/62/The_Second_City_Chicago.jpg/640px-The_Second_City_Chicago.jpg"
  },
  {
    "name": "Kingston Mines",
    "category": "music venue",
    "neighborhood": "Lincoln Park",
    "streets": "2548 N Halsted St",
    "lat": 41.9289,
    "lng": -87.6484
  },
  {
    "name": "Riviera Theatre",
    "category": "music venue",
    "neighborhood": "Uptown",
    "streets": "Broadway & Lawrence",
    "lat": 41.9692,
    "lng": -87.6596
  },
  {
    "name": "Aragon Ballroom",
    "category": "music venue",
    "neighborhood": "Uptown",
    "streets": "Lawrence & Winthrop",
    "lat": 41.9693,
    "lng": -87.6579
  },
  {
    "name": "Thalia Hall",
    "category": "music venue",
    "neighborhood": "Pilsen",
    "streets": "18th & Allport",
    "lat": 41.8575,
    "lng": -87.664,
    "image_url": "https://upload.wikimedia.org/wikipedia/commons/thumb/8/8f/Thalia_Hall_Chicago.jpg/640px-Thalia_Hall_Chicago.jpg"
  },
  {
    "name": "Music Box Theatre",
    "category": "theatre",
    "neighborhood": "Lakeview",
    "streets": "Southport & Grace",
    "lat": 41.9499,
    "lng": -87.6639,
    "image_url": "https://upload.wikimedia.org/wikipedia/commons/thumb/6/63/Music_Box_Theatre_Chicago.jpg/640px-Music_Box_Theatre_Chicago.jpg"
  },
  {
    "name": "Logan Theatre",
    "category": "theatre",
    "neighborhood": "Logan Square",
    "streets": "Milwaukee & Kedzie",
    "lat": 41.9294,
    "lng": -87.7074
  },
  {
    "name": "Ricobene's",
    "category": "restaurant",
    "neighborhood": "Bridgeport",
    "streets": "252 W 26th St",
    "lat": 41.8456025,
    "lng": -87.6339433
  },
  {
    "name": "Lou Mitchell's",
    "category": "restaurant",
    "neighborhood": "West Loop",
    "streets": "565 W Jackson Blvd",
    "lat": 41.8789,
    "lng": -87.6416
  },
  {
    "name": "Manny's Cafeteria & Delicatessen",
    "category": "restaurant",
    "neighborhood": "South Loop",
    "streets": "1141 S Jefferson St",
    "lat": 41.8682,
    "lng": -87.6424
  },
  {
    "name": "Al's Beef on Taylor",
    "category": "restaurant",
    "neighborhood": "Little Italy",
    "streets": "1079 W Taylor St",
    "lat": 41.8698,
    "lng": -87.6547
  },
  {
    "name": "Original Rainbow Cone",
    "category": "restaurant",
    "neighborhood": "Beverly",
    "streets": "9233 S Western Ave",
    "lat": 41.7256,
    "lng": -87.6817
  },
  {
    "name": "Superdawg Drive-In",
    "category": "restaurant",
    "neighborhood": "Norwood Park",
    "streets": "Milwaukee & Devon",
    "lat": 41.9977,
    "lng": -87.7871
  },
  {
    "name": "Pequod's Pizza",
    "category": "restaurant",
    "neighborhood": "Lincoln Park",
    "streets": "2207 N Clybourn Ave",
    "lat": 41.9219,
    "lng": -87.6643
  },
  {
    "name": "Alinea",
    "category": "restaurant",
    "neighborhood": "Lincoln Park",
    "streets": "1723 N Halsted St",
    "lat": 41.9134,
    "lng": -87.6482
  },
  {
    "name": "Frontera Grill",
    "category": "restaurant",
    "neighborhood": "River North",
    "streets": "445 N Clark St",
    "lat": 41.8905,
    "lng": -87.6309
  },
  {
    "name": "Girl & the Goat",
    "category": "restaurant",
    "neighborhood": "West Loop",
    "streets": "809 W Randolph St",
    "lat": 41.8843,
    "lng": -87.6479
  },
  {
    "name": "Au Cheval",
    "category": "restaurant",
    "neighborhood": "West Loop",
    "streets": "800 W Randolph St",
    "lat": 41.8847,
    "lng": -87.6477
  },
  {
    "name": "Kasama",
    "category": "restaurant",
    "neighborhood": "Ukrainian Village",
    "streets": "1001 N Winchester Ave",
    "lat": 41.9004,
    "lng": -87.6753
  },
  {
    "name": "Old Town Ale House",
    "category": "bar",
    "neighborhood": "Old Town",
    "streets": "219 W North Ave",
    "lat": 41.9105,
    "lng": -87.6344
  },
  {
    "name": "Chicago Pizza and Oven Grinder Co.",
    "category": "restaurant",
    "neighborhood": "Lincoln Park",
    "streets": "2121 N Clark St",
    "lat": 41.9209,
    "lng": -87.6374
  },
  {
    "name": "Margie's Candies",
    "category": "restaurant",
    "neighborhood": "Bucktown",
    "streets": "1960 N Western Ave",
    "lat": 41.9173,
    "lng": -87.6877
  },
  {
    "name": "Garrett Popcorn Shops",
    "category": "restaurant",
    "neighborhood": "Loop",
    "streets": "26 W Randolph St",
    "lat": 41.8846,
    "lng": -87.629
  },
  {
    "name": "Chinatown Gate",
    "category": "landmark",
    "neighborhood": "Chinatown",
    "streets": "Cermak & Wentworth",
    "lat": 41.8529,
    "lng": -87.6324,
    "image_url": "https://upload.wikimedia.org/wikipedia/commons/thumb/8/8d/Chicago_Chinatown_Gate.jpg/640px-Chicago_Chinatown_Gate.jpg"
  },
  {
    "name": "Ping Tom Memorial Park",
    "category": "park",
    "neighborhood": "Chinatown",
    "streets": "19th & Wells",
    "lat": 41.8581,
    "lng": -87.6346
  },
  {
    "name": "31st Street Beach",
    "category": "beach",
    "neighborhood": "Bronzeville",
    "streets": "31st & Lakefront Trail",
    "lat": 41.8383,
    "lng": -87.6075
  },
  {
    "name": "Montrose Beach",
    "category": "beach",
    "neighborhood": "Uptown",
    "streets": "Montrose & Lakefront Trail",
    "lat": 41.965,
    "lng": -87.6386
  },
  {
    "name": "North Avenue Beach",
    "category": "beach",
    "neighborhood": "Lincoln Park",
    "streets": "North Ave & Lakefront Trail",
    "lat": 41.9148,
    "lng": -87.6254
  },
  {
    "name": "Oak Street Beach",
    "category": "beach",
    "neighborhood": "Gold Coast",
    "streets": "Oak & Lakefront Trail",
    "lat": 41.9023,
    "lng": -87.6227
  },
  {
    "name": "The 606 Bloomingdale Trail",
    "category": "park",
    "neighborhood": "Logan Square",
    "streets": "Milwaukee & Bloomingdale",
    "lat": 41.9137,
    "lng": -87.6994
  },
  {
    "name": "Humboldt Park Boathouse",
    "category": "park",
    "neighborhood": "Humboldt Park",
    "streets": "Sacramento & Division",
    "lat": 41.9055,
    "lng": -87.7037
  },
  {
    "name": "Garfield Park Conservatory",
    "category": "park",
    "neighborhood": "Garfield Park",
    "streets": "300 N Central Park Ave",
    "lat": 41.8863,
    "lng": -87.7165,
    "image_url": "https://upload.wikimedia.org/wikipedia/commons/thumb/d/df/Garfield_Park_Conservatory.jpg/640px-Garfield_Park_Conservatory.jpg"
  },
  {
    "name": "Jackson Park Japanese Garden",
    "category": "park",
    "neighborhood": "Hyde Park",
    "streets": "59th & Cornell",
    "lat": 41.7893,
    "lng": -87.58
  },
  {
    "name": "57th Street Beach",
    "category": "beach",
    "neighborhood": "Hyde Park",
    "streets": "57th & Lakefront Trail",
    "lat": 41.7915,
    "lng": -87.5797
  },
  {
    "name": "63rd Street Beach",
    "category": "beach",
    "neighborhood": "Woodlawn",
    "streets": "63rd & Lakefront Trail",
    "lat": 41.7814,
    "lng": -87.5748
  },
  {
    "name": "South Shore Cultural Center",
    "category": "landmark",
    "neighborhood": "South Shore",
    "streets": "7059 S South Shore Dr",
    "lat": 41.7636,
    "lng": -87.5705
  },
  {
    "name": "Pullman National Historical Park",
    "category": "historic site",
    "neighborhood": "Pullman",
    "streets": "11141 S Cottage Grove Ave",
    "lat": 41.6929,
    "lng": -87.6079,
    "image_url": "https://upload.wikimedia.org/wikipedia/commons/thumb/f/f7/Pullman_Administration_Building.jpg/640px-Pullman_Administration_Building.jpg"
  },
  {
    "name": "Glessner House",
    "category": "museum",
    "neighborhood": "Prairie Avenue District",
    "streets": "1800 S Prairie Ave",
    "lat": 41.8586,
    "lng": -87.621
  },
  {
    "name": "Clarke House Museum",
    "category": "museum",
    "neighborhood": "Prairie Avenue District",
    "streets": "1827 S Indiana Ave",
    "lat": 41.8561,
    "lng": -87.6219
  },
  {
    "name": "Chicago History Museum",
    "category": "museum",
    "neighborhood": "Lincoln Park",
    "streets": "1601 N Clark St",
    "lat": 41.912,
    "lng": -87.6317,
    "image_url": "https://upload.wikimedia.org/wikipedia/commons/thumb/c/c6/Chicago_History_Museum.jpg/640px-Chicago_History_Museum.jpg"
  },
  {
    "name": "Peggy Notebaert Nature Museum",
    "category": "museum",
    "neighborhood": "Lincoln Park",
    "streets": "2430 N Cannon Dr",
    "lat": 41.9266,
    "lng": -87.6355
  },
  {
    "name": "National Museum of Mexican Art",
    "category": "museum",
    "neighborhood": "Pilsen",
    "streets": "1852 W 19th St",
    "lat": 41.8561,
    "lng": -87.6728,
    "image_url": "https://upload.wikimedia.org/wikipedia/commons/thumb/7/72/National_Museum_of_Mexican_Art.jpg/640px-National_Museum_of_Mexican_Art.jpg"
  },
  {
    "name": "DuSable Black History Museum",
    "category": "museum",
    "neighborhood": "Washington Park",
    "streets": "740 E 56th Pl",
    "lat": 41.7805,
    "lng": -87.6038
  },
  {
    "name": "Smart Museum of Art",
    "category": "museum",
    "neighborhood": "Hyde Park",
    "streets": "5550 S Greenwood Ave",
    "lat": 41.7935,
    "lng": -87.6003
  },
  {
    "name": "Institute for the Study of Ancient Cultures",
    "category": "museum",
    "neighborhood": "Hyde Park",
    "streets": "1155 E 58th St",
    "lat": 41.7896,
    "lng": -87.597
  },
  {
    "name": "Stony Island Arts Bank",
    "category": "gallery",
    "neighborhood": "South Shore",
    "streets": "6760 S Stony Island Ave",
    "lat": 41.771,
    "lng": -87.5864
  },
  {
    "name": "DuSable Bridge",
    "category": "landmark",
    "neighborhood": "Loop",
    "streets": "Michigan & Wacker",
    "lat": 41.8884,
    "lng": -87.6247,
    "image_url": "https://upload.wikimedia.org/wikipedia/commons/thumb/d/d5/DuSable_Bridge_Chicago.jpg/640px-DuSable_Bridge_Chicago.jpg"
  },
  {
    "name": "Merchandise Mart",
    "category": "landmark",
    "neighborhood": "River North",
    "streets": "222 W Merchandise Mart Plaza",
    "lat": 41.8886,
    "lng": -87.6354,
    "image_url": "https://upload.wikimedia.org/wikipedia/commons/thumb/4/48/Merchandise_Mart_2007.jpg/640px-Merchandise_Mart_2007.jpg"
  },
  {
    "name": "Chicago Union Station",
    "category": "train station",
    "neighborhood": "West Loop",
    "streets": "Canal & Jackson",
    "lat": 41.8787,
    "lng": -87.64,
    "image_url": "https://upload.wikimedia.org/wikipedia/commons/thumb/7/79/Chicago_Union_Station_Entrance.jpg/640px-Chicago_Union_Station_Entrance.jpg"
  },
  {
    "name": "Ogilvie Transportation Center",
    "category": "train station",
    "neighborhood": "West Loop",
    "streets": "Madison & Canal",
    "lat": 41.8823,
    "lng": -87.6404
  },
  {
    "name": "Millennium Station",
    "category": "train station",
    "neighborhood": "Loop",
    "streets": "Randolph & Michigan",
    "lat": 41.8843,
    "lng": -87.6237
  },
  {
    "name": "Daley Plaza Picasso",
    "category": "landmark",
    "neighborhood": "Loop",
    "streets": "Dearborn & Washington",
    "lat": 41.8841,
    "lng": -87.6302,
    "image_url": "https://upload.wikimedia.org/wikipedia/commons/thumb/b/b0/Chicago_Picasso.jpg/640px-Chicago_Picasso.jpg"
  },
  {
    "name": "Civic Opera House",
    "category": "theatre",
    "neighborhood": "Loop",
    "streets": "20 N Wacker Dr",
    "lat": 41.8826,
    "lng": -87.6376,
    "image_url": "https://upload.wikimedia.org/wikipedia/commons/thumb/2/24/Civic_Opera_House_Chicago.jpg/640px-Civic_Opera_House_Chicago.jpg"
  },
  {
    "name": "Symphony Center",
    "category": "music venue",
    "neighborhood": "Loop",
    "streets": "220 S Michigan Ave",
    "lat": 41.8793,
    "lng": -87.6247
  },
  {
    "name": "Cadillac Palace Theatre",
    "category": "theatre",
    "neighborhood": "Loop",
    "streets": "151 W Randolph St",
    "lat": 41.8842,
    "lng": -87.6338
  },
  {
    "name": "James M. Nederlander Theatre",
    "category": "theatre",
    "neighborhood": "Loop",
    "streets": "24 W Randolph St",
    "lat": 41.884,
    "lng": -87.6296
  },
  {
    "name": "Goodman Theatre",
    "category": "theatre",
    "neighborhood": "Loop",
    "streets": "170 N Dearborn St",
    "lat": 41.884,
    "lng": -87.6293
  },
  {
    "name": "CIBC Theatre",
    "category": "theatre",
    "neighborhood": "Loop",
    "streets": "18 W Monroe St",
    "lat": 41.8808,
    "lng": -87.6286
  },
  {
    "name": "Auditorium Theatre",
    "category": "theatre",
    "neighborhood": "Loop",
    "streets": "50 E Ida B Wells Dr",
    "lat": 41.8759,
    "lng": -87.625
  },
  {
    "name": "Palmer House",
    "category": "hotel",
    "neighborhood": "Loop",
    "streets": "17 E Monroe St",
    "lat": 41.8805,
    "lng": -87.6264
  },
  {
    "name": "The Drake Hotel",
    "category": "hotel",
    "neighborhood": "Gold Coast",
    "streets": "140 E Walton Pl",
    "lat": 41.9005,
    "lng": -87.6243
  },
  {
    "name": "Chicago Water Tower",
    "category": "landmark",
    "neighborhood": "Magnificent Mile",
    "streets": "806 N Michigan Ave",
    "lat": 41.8972,
    "lng": -87.6241,
    "image_url": "https://upload.wikimedia.org/wikipedia/commons/thumb/e/e6/Chicago_Water_Tower_2013.jpg/640px-Chicago_Water_Tower_2013.jpg"
  },
  {
    "name": "Water Tower Place",
    "category": "shopping",
    "neighborhood": "Magnificent Mile",
    "streets": "835 N Michigan Ave",
    "lat": 41.8979,
    "lng": -87.6229
  },
  {
    "name": "Tribune Tower",
    "category": "landmark",
    "neighborhood": "Streeterville",
    "streets": "435 N Michigan Ave",
    "lat": 41.8904,
    "lng": -87.6237,
    "image_url": "https://upload.wikimedia.org/wikipedia/commons/thumb/b/b4/Tribune_Tower_Chicago.jpg/640px-Tribune_Tower_Chicago.jpg"
  },
  {
    "name": "Wrigley Building",
    "category": "landmark",
    "neighborhood": "Near North Side",
    "streets": "400 N Michigan Ave",
    "lat": 41.8899,
    "lng": -87.6244,
    "image_url": "https://upload.wikimedia.org/wikipedia/commons/thumb/1/1d/Wrigley_Building_Chicago.jpg/640px-Wrigley_Building_Chicago.jpg"
  },
  {
    "name": "Marina City",
    "category": "landmark",
    "neighborhood": "River North",
    "streets": "300 N State St",
    "lat": 41.888,
    "lng": -87.6286,
    "image_url": "https://upload.wikimedia.org/wikipedia/commons/thumb/8/86/Marina_City_Chicago.jpg/640px-Marina_City_Chicago.jpg"
  },
  {
    "name": "Chicago Riverwalk",
    "category": "attraction",
    "neighborhood": "Loop",
    "streets": "Wacker & Michigan",
    "lat": 41.8876,
    "lng": -87.6266
  },
  {
    "name": "Maxwell Street Market",
    "category": "market",
    "neighborhood": "Near West Side",
    "streets": "800 S Desplaines St",
    "lat": 41.871,
    "lng": -87.644
  },
  {
    "name": "Jane Addams Hull-House Museum",
    "category": "museum",
    "neighborhood": "Little Italy",
    "streets": "800 S Halsted St",
    "lat": 41.8716,
    "lng": -87.6475
  },
  {
    "name": "Credit Union 1 Arena",
    "category": "sports",
    "neighborhood": "Little Italy",
    "streets": "525 S Racine Ave",
    "lat": 41.8747,
    "lng": -87.6562
  },
  {
    "name": "Wintrust Arena",
    "category": "sports",
    "neighborhood": "South Loop",
    "streets": "200 E Cermak Rd",
    "lat": 41.8533,
    "lng": -87.6217
  },
  {
    "name": "McCormick Place",
    "category": "convention center",
    "neighborhood": "South Loop",
    "streets": "2301 S King Dr",
    "lat": 41.8517,
    "lng": -87.6169
  },
  {
    "name": "The Salt Shed",
    "category": "music venue",
    "neighborhood": "Goose Island",
    "streets": "1357 N Elston Ave",
    "lat": 41.9065,
    "lng": -87.6588
  },
  {
    "name": "Steppenwolf Theatre",
    "category": "theatre",
    "neighborhood": "Lincoln Park",
    "streets": "1650 N Halsted St",
    "lat": 41.9128,
    "lng": -87.6485
  },
  {
    "name": "Biograph Theater",
    "category": "theatre",
    "neighborhood": "Lincoln Park",
    "streets": "2433 N Lincoln Ave",
    "lat": 41.9251,
    "lng": -87.6495
  },
  {
    "name": "Briar Street Theatre",
    "category": "theatre",
    "neighborhood": "Lakeview",
    "streets": "3133 N Halsted St",
    "lat": 41.939,
    "lng": -87.6448
  },
  {
    "name": "Lincoln Hall",
    "category": "music venue",
    "neighborhood": "Lincoln Park",
    "streets": "2424 N Lincoln Ave",
    "lat": 41.9255,
    "lng": -87.6492
  },
  {
    "name": "Schubas Tavern",
    "category": "music venue",
    "neighborhood": "Lakeview",
    "streets": "3159 N Southport Ave",
    "lat": 41.9396,
    "lng": -87.6634
  },
  {
    "name": "Empty Bottle",
    "category": "music venue",
    "neighborhood": "Ukrainian Village",
    "streets": "1035 N Western Ave",
    "lat": 41.9005,
    "lng": -87.6865
  },
  {
    "name": "Subterranean",
    "category": "music venue",
    "neighborhood": "Wicker Park",
    "streets": "2011 W North Ave",
    "lat": 41.9103,
    "lng": -87.6775
  },
  {
    "name": "House of Blues Chicago",
    "category": "music venue",
    "neighborhood": "River North",
    "streets": "329 N Dearborn St",
    "lat": 41.8882,
    "lng": -87.6287
  },
  {
    "name": "Chicago Children's Museum",
    "category": "museum",
    "neighborhood": "Navy Pier",
    "streets": "700 E Grand Ave",
    "lat": 41.8919,
    "lng": -87.6094
  },
  {
    "name": "Museum of Contemporary Art Chicago",
    "category": "museum",
    "neighborhood": "Streeterville",
    "streets": "220 E Chicago Ave",
    "lat": 41.8972,
    "lng": -87.6215,
    "image_url": "https://upload.wikimedia.org/wikipedia/commons/thumb/3/35/Museum_of_Contemporary_Art_Chicago.jpg/640px-Museum_of_Contemporary_Art_Chicago.jpg"
  },
  {
    "name": "American Writers Museum",
    "category": "museum",
    "neighborhood": "Loop",
    "streets": "180 N Michigan Ave",
    "lat": 41.8864,
    "lng": -87.6252
  },
  {
    "name": "Spertus Institute",
    "category": "museum",
    "neighborhood": "Loop",
    "streets": "610 S Michigan Ave",
    "lat": 41.8749,
    "lng": -87.6246
  },
  {
    "name": "Money Museum",
    "category": "museum",
    "neighborhood": "Loop",
    "streets": "230 South LaSalle Street",
    "lat": 41.87833,
    "lng": -87.632568
  },
  {
    "name": "McCormick Bridgehouse & Chicago River Museum",
    "category": "museum",
    "neighborhood": "Streeterville",
    "streets": "376 North Michigan Avenue",
    "lat": 41.8884954,
    "lng": -87.6246857
  },
  {
    "name": "National Museum of Puerto Rican Arts & Culture",
    "category": "museum",
    "neighborhood": "Humboldt Park",
    "streets": "3015 West Division Street",
    "lat": 41.9023107,
    "lng": -87.703187
  },
  {
    "name": "Polish Museum of America",
    "category": "museum",
    "neighborhood": "Goose Island",
    "streets": "984 North Milwaukee Avenue",
    "lat": 41.8996737,
    "lng": -87.66105
  },
  {
    "name": "Loyola University Museum of Art",
    "category": "museum",
    "neighborhood": "Streeterville",
    "streets": "820 North Michigan Avenue",
    "lat": 41.8973289,
    "lng": -87.6250576
  },
  {
    "name": "National Veterans Art Museum",
    "category": "museum",
    "neighborhood": "Irving Park",
    "streets": "4041 North Milwaukee Avenue",
    "lat": 41.9543845,
    "lng": -87.7486367
  },
  {
    "name": "Richard H. Driehaus Museum",
    "category": "museum",
    "neighborhood": "River North",
    "streets": "50 East Erie Street",
    "lat": 41.8942846,
    "lng": -87.6265031
  },
  {
    "name": "Metro",
    "category": "theatre",
    "neighborhood": "Lakeview",
    "streets": "3730 North Clark Street",
    "lat": 41.9497837,
    "lng": -87.6590034
  },
  {
    "name": "Uptown Theatre",
    "category": "theatre",
    "neighborhood": "Uptown",
    "streets": "4816 North Broadway",
    "lat": 41.9694501,
    "lng": -87.6605129
  },
  {
    "name": "Northwestern University Law Library",
    "category": "library",
    "neighborhood": "Streeterville",
    "streets": "750 North Lake Shore Drive",
    "lat": 41.8965181,
    "lng": -87.6173152
  },
  {
    "name": "Haymarket Memorial",
    "category": "landmark",
    "neighborhood": "West Loop",
    "streets": "Near West Loop",
    "lat": 41.8848807,
    "lng": -87.6441288
  },
  {
    "name": "Union Stock Yards Fire Memorial",
    "category": "landmark",
    "neighborhood": "Bridgeport",
    "streets": "Near Bridgeport",
    "lat": 41.8186295,
    "lng": -87.6487586
  },
  {
    "name": "Home Insurance Building Site",
    "category": "landmark",
    "neighborhood": "Loop",
    "streets": "Near Loop",
    "lat": 41.8797637,
    "lng": -87.6318848
  },
  {
    "name": "Haymarket Martyrs' Monument",
    "category": "landmark",
    "neighborhood": "Humboldt Park",
    "streets": "Near Humboldt Park",
    "lat": 41.869797,
    "lng": -87.8197717
  },
  {
    "name": "Kids Off The Block Gun Violence Memorial",
    "category": "landmark",
    "neighborhood": "Pullman",
    "streets": "Near Pullman",
    "lat": 41.6819209,
    "lng": -87.6208351
  },
  {
    "name": "iO Theater",
    "category": "theatre",
    "neighborhood": "Goose Island",
    "streets": "1501 North Kingsbury Street",
    "lat": 41.9084994,
    "lng": -87.6518345
  },
  {
    "name": "William McKinley Memorial",
    "category": "landmark",
    "neighborhood": "Bridgeport",
    "streets": "Near Bridgeport",
    "lat": 41.8262698,
    "lng": -87.6838647
  },
  {
    "name": "Vietnam Veterans Memorial",
    "category": "landmark",
    "neighborhood": "Loop",
    "streets": "Near Loop",
    "lat": 41.8870664,
    "lng": -87.6271551
  },
  {
    "name": "Darius & Girenas Memorial",
    "category": "landmark",
    "neighborhood": "Beverly",
    "streets": "Near Beverly",
    "lat": 41.7715196,
    "lng": -87.6937427
  },
  {
    "name": "Haymarket Police Memorial",
    "category": "landmark",
    "neighborhood": "Bronzeville",
    "streets": "Near Bronzeville",
    "lat": 41.830436,
    "lng": -87.6243239
  },
  {
    "name": "Battle of Fort Dearborn",
    "category": "landmark",
    "neighborhood": "South Loop",
    "streets": "Near South Loop",
    "lat": 41.8579606,
    "lng": -87.6195131
  },
  {
    "name": "Memorial Day Massacre of 1937",
    "category": "landmark",
    "neighborhood": "Pullman",
    "streets": "Near Pullman",
    "lat": 41.6828844,
    "lng": -87.5399169
  },
  {
    "name": "Chicago-Kent College of Law",
    "category": "campus",
    "neighborhood": "West Loop",
    "streets": "565 West Adams Street",
    "lat": 41.8788616,
    "lng": -87.6420986
  },
  {
    "name": "American Islamic College",
    "category": "campus",
    "neighborhood": "Uptown",
    "streets": "640 West Irving Park Road",
    "lat": 41.9549261,
    "lng": -87.6457926
  },
  {
    "name": "Loyola Law School",
    "category": "campus",
    "neighborhood": "River North",
    "streets": "25 East Pearson Street",
    "lat": 41.8971495,
    "lng": -87.6271627
  },
  {
    "name": "IIT Stuart School of Business",
    "category": "campus",
    "neighborhood": "West Loop",
    "streets": "565 West Adams Street",
    "lat": 41.8791013,
    "lng": -87.6421093
  },
  {
    "name": "Neofuturists",
    "category": "theatre",
    "neighborhood": "Andersonville",
    "streets": "Near Andersonville",
    "lat": 41.9757947,
    "lng": -87.6693323
  },
  {
    "name": "The Berghoff Restaurant",
    "category": "restaurant",
    "neighborhood": "Loop",
    "streets": "17 West Adams Street",
    "lat": 41.8793454,
    "lng": -87.6284801
  },
  {
    "name": "Boka",
    "category": "restaurant",
    "neighborhood": "Goose Island",
    "streets": "1729 North Halsted Street",
    "lat": 41.9136386,
    "lng": -87.6482025
  },
  {
    "name": "Next",
    "category": "restaurant",
    "neighborhood": "West Loop",
    "streets": "953 West Fulton Market",
    "lat": 41.8865946,
    "lng": -87.6520069
  },
  {
    "name": "Broadway Playhouse at Water Tower Place",
    "category": "theatre",
    "neighborhood": "Streeterville",
    "streets": "Near Streeterville",
    "lat": 41.8982462,
    "lng": -87.6223534
  },
  {
    "name": "RJ Grunts",
    "category": "restaurant",
    "neighborhood": "Old Town",
    "streets": "2056 North Lincoln Park West",
    "lat": 41.9200447,
    "lng": -87.6366013
  },
  {
    "name": "Shaw\u2019s Crab House",
    "category": "restaurant",
    "neighborhood": "River North",
    "streets": "21 East Hubbard Street",
    "lat": 41.8898798,
    "lng": -87.6271532
  },
  {
    "name": "Sepia",
    "category": "restaurant",
    "neighborhood": "West Loop",
    "streets": "123 North Jefferson Street",
    "lat": 41.883943,
    "lng": -87.6425174
  },
  {
    "name": "Green Mill Cocktail Lounge",
    "category": "bar",
    "neighborhood": "Uptown",
    "streets": "4802 North Broadway",
    "lat": 41.9691831,
    "lng": -87.6598913
  },
  {
    "name": "Intelligentsia Coffee",
    "category": "cafe",
    "neighborhood": "Loop",
    "streets": "53 East Randolph Street",
    "lat": 41.8843548,
    "lng": -87.625863
  },
  {
    "name": "Morse Station",
    "category": "CTA/Metra station",
    "neighborhood": "Rogers Park",
    "streets": "1358 West Morse Avenue",
    "lat": 42.0082732,
    "lng": -87.6659808
  },
  {
    "name": "Sheridan Station",
    "category": "CTA/Metra station",
    "neighborhood": "Uptown",
    "streets": "3940 North Sheridan Road",
    "lat": 41.9538893,
    "lng": -87.6552485
  },
  {
    "name": "Addison Station",
    "category": "CTA/Metra station",
    "neighborhood": "Lakeview",
    "streets": "940 West Addison Street",
    "lat": 41.9475136,
    "lng": -87.6536254
  },
  {
    "name": "Belmont Station",
    "category": "CTA/Metra station",
    "neighborhood": "Lakeview",
    "streets": "945 West Belmont Avenue",
    "lat": 41.9397786,
    "lng": -87.653334
  },
  {
    "name": "Armitage Station",
    "category": "CTA/Metra station",
    "neighborhood": "Lincoln Park",
    "streets": "944 West Armitage Avenue",
    "lat": 41.9182415,
    "lng": -87.6526308
  },
  {
    "name": "UIC-Halsted Station",
    "category": "CTA/Metra station",
    "neighborhood": "West Loop",
    "streets": "430 South Halsted Street",
    "lat": 41.8754875,
    "lng": -87.6496998
  },
  {
    "name": "Racine Station",
    "category": "CTA/Metra station",
    "neighborhood": "Little Italy",
    "streets": "430 South Racine Avenue",
    "lat": 41.8758936,
    "lng": -87.6594131
  },
  {
    "name": "Illinois Medical District Station",
    "category": "CTA/Metra station",
    "neighborhood": "Near West Side",
    "streets": "430 South Damen Avenue",
    "lat": 41.8756649,
    "lng": -87.6731661
  },
  {
    "name": "Clinton Station",
    "category": "CTA/Metra station",
    "neighborhood": "Loop",
    "streets": "426 South Clinton Street",
    "lat": 41.8756041,
    "lng": -87.6410008
  },
  {
    "name": "Grand Station",
    "category": "CTA/Metra station",
    "neighborhood": "West Loop",
    "streets": "502 North Milwaukee Avenue",
    "lat": 41.8913772,
    "lng": -87.6478613
  },
  {
    "name": "Logan Square Station",
    "category": "CTA/Metra station",
    "neighborhood": "Logan Square",
    "streets": "2620 North Kedzie Avenue",
    "lat": 41.9299772,
    "lng": -87.708843
  },
  {
    "name": "Harrison Station",
    "category": "CTA/Metra station",
    "neighborhood": "Loop",
    "streets": "608 South State Street",
    "lat": 41.8731127,
    "lng": -87.6275552
  },
  {
    "name": "Jackson Station",
    "category": "CTA/Metra station",
    "neighborhood": "Loop",
    "streets": "230 South State Street",
    "lat": 41.878227,
    "lng": -87.627698
  },
  {
    "name": "Monroe Station",
    "category": "CTA/Metra station",
    "neighborhood": "Loop",
    "streets": "26 South State Street",
    "lat": 41.8807789,
    "lng": -87.6277387
  },
  {
    "name": "Washington/Wells Station",
    "category": "CTA/Metra station",
    "neighborhood": "Loop",
    "streets": "100 North Wells Street",
    "lat": 41.8824096,
    "lng": -87.6338517
  },
  {
    "name": "Quincy Station",
    "category": "CTA/Metra station",
    "neighborhood": "Loop",
    "streets": "220 South Wells Street",
    "lat": 41.8787419,
    "lng": -87.6337584
  },
  {
    "name": "LaSalle/Van Buren Station",
    "category": "CTA/Metra station",
    "neighborhood": "Loop",
    "streets": "121 West Van Buren Street",
    "lat": 41.8768826,
    "lng": -87.6313905
  },
  {
    "name": "Harold Washington Library-State/Van Buren Station",
    "category": "CTA/Metra station",
    "neighborhood": "Loop",
    "streets": "1 West Van Buren Street",
    "lat": 41.8769158,
    "lng": -87.6289437
  },
  {
    "name": "Clark/Lake Station",
    "category": "CTA/Metra station",
    "neighborhood": "Loop",
    "streets": "100-124 West Lake Street",
    "lat": 41.8857528,
    "lng": -87.6313736
  },
  {
    "name": "Ashland Station",
    "category": "CTA/Metra station",
    "neighborhood": "Near West Side",
    "streets": "1601 West Lake Street",
    "lat": 41.8853413,
    "lng": -87.6662819
  },
  {
    "name": "35th-Bronzeville-IIT Station",
    "category": "CTA/Metra station",
    "neighborhood": "Bronzeville",
    "streets": "16 East 35th Street",
    "lat": 41.8320387,
    "lng": -87.6258861
  },
  {
    "name": "Washington Station",
    "category": "CTA/Metra station",
    "neighborhood": "Loop",
    "streets": "19 North Dearborn Street",
    "lat": 41.8832522,
    "lng": -87.6294604
  },
  {
    "name": "Fullerton Station",
    "category": "CTA/Metra station",
    "neighborhood": "Lincoln Park",
    "streets": "943 West Fullerton Avenue",
    "lat": 41.9251961,
    "lng": -87.6528026
  },
  {
    "name": "Halsted Street Station",
    "category": "CTA/Metra station",
    "neighborhood": "Pilsen",
    "streets": "South Halsted Street",
    "lat": 41.8604155,
    "lng": -87.6473136
  },
  {
    "name": "Kedzie Station",
    "category": "CTA/Metra station",
    "neighborhood": "Garfield Park",
    "streets": "North Kedzie Avenue",
    "lat": 41.8882254,
    "lng": -87.7069025
  },
  {
    "name": "Clybourn Station",
    "category": "CTA/Metra station",
    "neighborhood": "Wicker Park",
    "streets": "2001 North Ashland Avenue",
    "lat": 41.9170269,
    "lng": -87.6681783
  },
  {
    "name": "Rogers Park Station",
    "category": "CTA/Metra station",
    "neighborhood": "Rogers Park",
    "streets": "7000 North Ravenswood Avenue",
    "lat": 42.009574,
    "lng": -87.6755503
  },
  {
    "name": "Gladstone Park Station",
    "category": "CTA/Metra station",
    "neighborhood": "Jefferson Park",
    "streets": "5500 North Austin Avenue",
    "lat": 41.9796031,
    "lng": -87.7777196
  },
  {
    "name": "Western Avenue Station",
    "category": "CTA/Metra station",
    "neighborhood": "Little Italy",
    "streets": "South Western Avenue",
    "lat": 41.8577983,
    "lng": -87.6850211
  },
  {
    "name": "Halsted Station",
    "category": "CTA/Metra station",
    "neighborhood": "Washington Park",
    "streets": "6321 South Halsted Street",
    "lat": 41.7790375,
    "lng": -87.6445259
  },
  {
    "name": "51st Station",
    "category": "CTA/Metra station",
    "neighborhood": "Washington Park",
    "streets": "319 East 51st Street",
    "lat": 41.8024192,
    "lng": -87.6185401
  },
  {
    "name": "47th Station",
    "category": "CTA/Metra station",
    "neighborhood": "Bronzeville",
    "streets": "314 East 47th Street",
    "lat": 41.8090247,
    "lng": -87.6188513
  },
  {
    "name": "The Park Grill",
    "category": "restaurant",
    "neighborhood": "Loop",
    "streets": "11 North Michigan Avenue",
    "lat": 41.8826848,
    "lng": -87.6235979
  },
  {
    "name": "White City Amusement Park",
    "category": "abandoned park",
    "neighborhood": "Washington Park",
    "streets": "Near Washington Park",
    "lat": 41.781369,
    "lng": -87.6164468
  },
  {
    "name": "Batcolumn",
    "category": "artwork",
    "neighborhood": "West Loop",
    "streets": "Near West Loop",
    "lat": 41.8819687,
    "lng": -87.643123
  },
  {
    "name": "Nuclear Energy",
    "category": "artwork",
    "neighborhood": "Hyde Park",
    "streets": "Near Hyde Park",
    "lat": 41.7924887,
    "lng": -87.6010567
  },
  {
    "name": "The Renaissance Society",
    "category": "museum",
    "neighborhood": "Woodlawn",
    "streets": "5811 South Ellis Avenue",
    "lat": 41.789142,
    "lng": -87.60102
  },
  {
    "name": "SkyDeck Chicago Willis Tower",
    "category": "attraction",
    "neighborhood": "Loop",
    "streets": "233 South Wacker Drive",
    "lat": 41.8785046,
    "lng": -87.6358868
  },
  {
    "name": "Greenhouse Theater Center",
    "category": "theatre",
    "neighborhood": "Lincoln Park",
    "streets": "2257 North Lincoln Avenue",
    "lat": 41.9232219,
    "lng": -87.6453824
  },
  {
    "name": "The Museum of Contemporary Photography",
    "category": "museum",
    "neighborhood": "Loop",
    "streets": "Near Loop",
    "lat": 41.8742073,
    "lng": -87.6245139
  },
  {
    "name": "Galewood-Mont Clare Branch Library",
    "category": "library",
    "neighborhood": "Portage Park",
    "streets": "6871 West Belden Avenue",
    "lat": 41.9208053,
    "lng": -87.7969796
  },
  {
    "name": "Altgeld Branch Library",
    "category": "library",
    "neighborhood": "Pullman",
    "streets": "955 East 131st Street",
    "lat": 41.6569309,
    "lng": -87.5981478
  },
  {
    "name": "Back of the Yards Branch Library",
    "category": "library",
    "neighborhood": "Bridgeport",
    "streets": "2111 West 47th Street",
    "lat": 41.8078383,
    "lng": -87.6773308
  },
  {
    "name": "Campbell Park",
    "category": "park",
    "neighborhood": "Near West Side",
    "streets": "Near Near West Side",
    "lat": 41.8725818,
    "lng": -87.6825384
  },
  {
    "name": "Seymour Simon Preserve",
    "category": "park",
    "neighborhood": "Norwood Park",
    "streets": "Near Norwood Park",
    "lat": 41.9461418,
    "lng": -87.8456176
  },
  {
    "name": "Greek Islands",
    "category": "restaurant",
    "neighborhood": "West Loop",
    "streets": "200 South Halsted Street",
    "lat": 41.8789853,
    "lng": -87.6475092
  },
  {
    "name": "California Clipper",
    "category": "bar",
    "neighborhood": "Ukrainian Village",
    "streets": "1002 North California Avenue",
    "lat": 41.8994722,
    "lng": -87.6969571
  },
  {
    "name": "Vanderpoel Art Museum",
    "category": "museum",
    "neighborhood": "Beverly",
    "streets": "9625 South Longwood Drive",
    "lat": 41.7187453,
    "lng": -87.6678158
  },
  {
    "name": "Norwood Park Historical Society",
    "category": "museum",
    "neighborhood": "Norwood Park",
    "streets": "5624 North Newark Avenue",
    "lat": 41.9835968,
    "lng": -87.7959941
  },
  {
    "name": "Busy Beaver Button Museum",
    "category": "museum",
    "neighborhood": "Logan Square",
    "streets": "3407 West Armitage Avenue",
    "lat": 41.9171899,
    "lng": -87.7122707
  },
  {
    "name": "Weather Bell",
    "category": "attraction",
    "neighborhood": "Loop",
    "streets": "79 West Monroe Street",
    "lat": 41.8806113,
    "lng": -87.6307011
  },
  {
    "name": "Moody Bible Auditorium",
    "category": "theatre",
    "neighborhood": "River North",
    "streets": "820 North LaSalle Drive",
    "lat": 41.897255,
    "lng": -87.6331086
  },
  {
    "name": "Rhapsody Theater",
    "category": "theatre",
    "neighborhood": "Rogers Park",
    "streets": "1328 West Morse Avenue",
    "lat": 42.0080948,
    "lng": -87.6650332
  },
  {
    "name": "The Promontory",
    "category": "theatre",
    "neighborhood": "Hyde Park",
    "streets": "5311 South Lake Park Avenue West",
    "lat": 41.799094,
    "lng": -87.5876633
  },
  {
    "name": "The Den",
    "category": "theatre",
    "neighborhood": "Wicker Park",
    "streets": "1329 North Milwaukee Avenue",
    "lat": 41.9061186,
    "lng": -87.6705558
  }
]
